{"type":"FeatureCollection","features":[{"type":"Feature","id":1,"geometry":{"type":"Point","coordinates":[-71.094206999999997,42.366576000000002]},"properties":{"OBJECTID":1,"Name":"Dunkin Donuts","Latitude":42.366576000000002,"Longitude":-71.094206999999997,"Price":2.1899999999999999,"Type":"chain","Facade":"rather low key, not flashy","Seating":"none outside, limited inside","Occupancy":"low","Name_1":null}},{"type":"Feature","id":2,"geometry":{"type":"Point","coordinates":[-71.097855999999993,42.367998999999998]},"properties":{"OBJECTID":2,"Name":"Pepita Coffee","Latitude":42.367998999999998,"Longitude":-71.097855999999993,"Price":2.75,"Type":"local","Facade":"good, integrated into outside environment","Seating":"none outside, inside yes","Occupancy":"high","Name_1":null}},{"type":"Feature","id":3,"geometry":{"type":"Point","coordinates":[-71.101039999999998,42.36956]},"properties":{"OBJECTID":3,"Name":"7-11'","Latitude":42.36956,"Longitude":-71.101039999999998,"Price":1,"Type":"chain","Facade":"fair/poor","Seating":"none","Occupancy":"low","Name_1":null}},{"type":"Feature","id":4,"geometry":{"type":"Point","coordinates":[-71.104353000000003,42.370567000000001]},"properties":{"OBJECTID":4,"Name":"Barismo","Latitude":42.370567000000001,"Longitude":-71.104353000000003,"Price":2.75,"Type":"local","Facade":"nicely kept","Seating":"none outside, inside yes","Occupancy":"medium","Name_1":null}},{"type":"Feature","id":5,"geometry":{"type":"Point","coordinates":[-71.105377000000004,42.366491000000003]},"properties":{"OBJECTID":5,"Name":"1369 Coffee House","Latitude":42.366491000000003,"Longitude":-71.105377000000004,"Price":2.8500000000000001,"Type":"local","Facade":"nicely kept","Seating":"both outside and inside","Occupancy":"high","Name_1":null}},{"type":"Feature","id":6,"geometry":{"type":"Point","coordinates":[-71.103814700000001,42.36556899]},"properties":{"OBJECTID":6,"Name":"Starbucks","Latitude":42.36556899,"Longitude":-71.103814700000001,"Price":2.3500000000000001,"Type":"chain","Facade":"nicely kept","Seating":"none outside, inside yes","Occupancy":"high","Name_1":null}},{"type":"Feature","id":7,"geometry":{"type":"Point","coordinates":[-71.102865210000004,42.364995980000003]},"properties":{"OBJECTID":7,"Name":"Cafe Nero","Latitude":42.364995980000003,"Longitude":-71.102865210000004,"Price":2.5499999999999998,"Type":"chain","Facade":"nicely kept","Seating":"none outside, inside yes","Occupancy":"high","Name_1":null}},{"type":"Feature","id":8,"geometry":{"type":"Point","coordinates":[-71.102758940000001,42.364948939999998]},"properties":{"OBJECTID":8,"Name":"Paris Baguette Cafe","Latitude":42.364948939999998,"Longitude":-71.102758940000001,"Price":2.1499999999999999,"Type":"chain","Facade":"nicely kept","Seating":"none outside, inside yes","Occupancy":"high","Name_1":null}},{"type":"Feature","id":9,"geometry":{"type":"Point","coordinates":[-71.101007390000007,42.363883379999997]},"properties":{"OBJECTID":9,"Name":"Mcdonalds's","Latitude":42.363883379999997,"Longitude":-71.101007390000007,"Price":1.3899999999999999,"Type":"chain","Facade":"nicely kept","Seating":"none outside, inside yes","Occupancy":"high","Name_1":null}},{"type":"Feature","id":10,"geometry":{"type":"Point","coordinates":[-71.100247999999993,42.363526]},"properties":{"OBJECTID":10,"Name":"New City Creamery","Latitude":42.363526,"Longitude":-71.100247999999993,"Price":2.6000000000000001,"Type":"local","Facade":"nicely kept","Seating":"both outside and inside","Occupancy":"low","Name_1":null}},{"type":"Feature","id":11,"geometry":{"type":"Point","coordinates":[-71.104577000000006,42.365681000000002]},"properties":{"OBJECTID":11,"Name":"Au Bon Pain","Latitude":42.365681000000002,"Longitude":-71.104577000000006,"Price":1.99,"Type":"chain","Facade":"relatively well kept","Seating":"both outside and inside","Occupancy":"low","Name_1":null}},{"type":"Feature","id":12,"geometry":{"type":"Point","coordinates":[-71.105776000000006,42.364764999999998]},"properties":{"OBJECTID":12,"Name":"Andala","Latitude":42.364764999999998,"Longitude":-71.105776000000006,"Price":2.3700000000000001,"Type":"local","Facade":"nicely kept","Seating":"both outside and inside","Occupancy":"medium","Name_1":null}},{"type":"Feature","id":13,"geometry":{"type":"Point","coordinates":[-71.103424000000004,42.365009000000001]},"properties":{"OBJECTID":13,"Name":"Dunkin","Latitude":42.365009000000001,"Longitude":-71.103424000000004,"Price":2.1899999999999999,"Type":"chain","Facade":"relatively well kept","Seating":"none outside, inside yes","Occupancy":"medium","Name_1":null}}]}